N Env_Canada,ID_SOMAEU,ID_ouvrage,Nom Ouvrage,SOMAEU-Secteur,Region,Trop-Plein X,Trop-Plein Y,Trop-Plein Z,Trop-Plein Lat,Trop-Plein Lon,Emissaire X,Emissaire Y,Emissaire Lon,Emissaire Lat
MTL-153,MTL-1,0642-01D,0642-01D Station d'epur. CUM - Cdte de deriv. d'urgence,OMAEU de Montreal (Station Jean-R.-Marcotte),MONTREAL (R-D-P),302760.72,5059197.57,,45.6726645581945,-73.5261744730218,307554.2,5058388.36,-73.4646540034421,45.6653806815436
MTL-162,MTL-2,0672-01D,0672-01D T.-P. 101e avenue,OMAEU de Montreal (Station Jean-R.-Marcotte),MONTREAL (R-D-P),302385.83,5060269.22,9.12,45.6823062250848,-73.5309915660176,302362.29,5060314.52,-73.5312939846466,45.6827137586788
MTL-164,MTL-3,0672-02D,0672-02D S.P. Riv.-des-Prairies - T.P. d'urgence,OMAEU de Montreal (Station Jean-R.-Marcotte),MONTREAL (R-D-P),303131.45,5061556.25,10.23,45.6938892926858,-73.5214241961586,303107.8,5061591.01,-73.5217279834598,45.6942020102478
MTL-159,MTL-4,0672-03D,0672-03D Regul. 89e avenue (Montreal),OMAEU de Montreal (Station Jean-R.-Marcotte),MONTREAL (R-D-P),301667.89,5059259.11,9.99,45.6732142303012,-73.5402015080491,301619.87,5059338.49,-73.5408183772808,45.6739282855525
IND-9,IND-2,0801-01D,Emissaire d'urgence (801-01D),OMAEU de Montreal (Ile Notre-Dame),ILE NOTRE-DAME,302655.4,5042120.33,13.71,45.5189984120942,-73.5274512451364,302752.59,5042284.09,-73.5262078808267,45.5204722827374
IND-3,IND-3,0801-02D,Entree de la station (801-02D),OMAEU de Montreal (Ile Notre-Dame),ILE NOTRE-DAME,302606.28,5041939.31,12.34,45.5173693679573,-73.5280791792443,302565.98,5041947.29,-73.528595047527,45.5174410472803
IND-2,IND-6,0801-03D,No 4 (801-03D),OMAEU de Montreal (Ile Notre-Dame),ILE NOTRE-DAME,302664.31,5040906.92,11.94,45.508079675582,-73.5273319097985,302600.4,5040879.57,-73.528149687734,45.5078333701315
IND-1,IND-7,0801-04D,No 5 (801-04D),OMAEU de Montreal (Ile Notre-Dame),ILE NOTRE-DAME,302939.54,5040332.74,12.36,45.5029137480435,-73.5238074224865,302924.16,5040332.16,-73.5240042308023,45.5029084877666
IND-4,IND-1,0801-05D,Versant est (801-05D),OMAEU de Montreal (Ile Notre-Dame),ILE NOTRE-DAME,302365.77,5041928.58,12.7,45.5172720168616,-73.5311576056383,301746.19,5042490.51,-73.5390915922844,45.5223260503241
IND-5,IND-4,0801-06D,No 1 (801-06D),OMAEU de Montreal (Ile Notre-Dame),ILE NOTRE-DAME,302224.3,5042087.05,18.66,45.518697485866,-73.5329692228008,301746.19,5042490.51,-73.5390915922844,45.5223260503241
IND-6,IND-5,0801-07D,No 2 (801-07D),OMAEU de Montreal (Ile Notre-Dame),ILE NOTRE-DAME,302139.77,5042135.79,33.58,45.5191357506511,-73.5340514797784,301746.19,5042490.51,-73.5390915922844,45.5223260503241
IND-7,IND-8,0801-08D,Ouest Vieux Fort (801-08D),OMAEU de Montreal (Ile Notre-Dame),ILE NOTRE-DAME,301893.92,5042164.1,14.13,45.5193895140184,-73.5371985765131,301746.19,5042490.51,-73.5390915922844,45.5223260503241
IND-8,IND-9,0801-09D,Terrain Jeux (801-09D),OMAEU de Montreal (Ile Notre-Dame),ILE NOTRE-DAME,302012.39,5041764.22,25.28,45.5157917153796,-73.5356798559737,301746.19,5042490.51,-73.5390915922844,45.5223260503241
MTL-157,MTL-5,3230-01D,3230-01D Ouv. de regul. St-Jean-Baptiste Nord (RdP),OMAEU de Montreal (Station Jean-R.-Marcotte),MONTREAL (R-D-P),301144.68,5058465.2,13.77,45.6660679377381,-73.5469110846225,300848.32,5059055.21,-73.5507192572704,45.6713753198126
MTL-150,MTL-6,3240-01D,3240-01D S.P. 71e avenue - T.-P. d'urgence,OMAEU de Montreal (Station Jean-R.-Marcotte),MONTREAL (R-D-P),300083.3,5058276.76,9.97,45.6643659177019,-73.5605306260624,300078.71,5058300.84,-73.5605897644218,45.6645825624067
MTL-151,MTL-7,3240-02D,3240-02D S.P. 71e Av. - Trop-plein d'orage pompe,OMAEU de Montreal (Station Jean-R.-Marcotte),MONTREAL (R-D-P),300084.53,5058275.92,10.11,45.6643583676012,-73.5605148330208,300078.71,5058300.84,-73.5605897644218,45.6645825624067
MTL-152,MTL-8,3240-03D,3240-03D S.P. 71e Av. - Trop-plein d'orage gravitaire,OMAEU de Montreal (Station Jean-R.-Marcotte),MONTREAL (R-D-P),300084.53,5058275.92,10.11,45.6643583676012,-73.5605148330208,300078.71,5058300.84,-73.5605897644218,45.6645825624067
MTL-145,MTL-9,3240-04D,3240-04D Trop-plein Rodolphe-Forget-Gouin,OMAEU de Montreal (Station Jean-R.-Marcotte),MONTREAL (R-D-P),298331.14,5057023.86,12.63,45.6530779784155,-73.5829998678616,298290.82,5057092.5,-73.5835181183469,45.6536952366673
MTL-72,MTL-10,3240-05D,3240-05D Trop-plein d'urgence Bassin de retention Perras,OMAEU de Montreal (Station Jean-R.-Marcotte),MONTREAL (R-D-P),300065.99,5057834.38,27.09,45.6603851879681,-73.5607484644277,284911.54,5041362.35,-73.7545436720545,45.5118974935891
MTL-148,MTL-11,3250-01D,3250-01D Ouv. de regulation Avenue 54,OMAEU de Montreal (Station Jean-R.-Marcotte),MONTREAL (R-D-P),299103.88,5057370.04,17.16,45.6561997423585,-73.5730891494854,298932.4,5057610.82,-73.5752923782975,45.6583648949071
MTL-147,MTL-12,3250-02D,3250-02D Trop-plein Riv-des-Prairies/Henri-Bourassa,OMAEU de Montreal (Station Jean-R.-Marcotte),MONTREAL (R-D-P),300580.88,5055979.09,38.93,45.6436942573503,-73.5541251368955,298932.17,5057610.57,-73.5752953266139,45.6583626434178
MTL-144,MTL-13,3260-01D,3260-01D Ouv. de regul. Rodolphe-Forget (41e Av.),OMAEU de Montreal (Station Jean-R.-Marcotte),MONTREAL (R-D-P),298543.38,5056761.45,20.17,45.6507187104077,-73.580273313983,298296.7,5057085.05,-73.5834425736506,45.6536282553372
MTL-141,MTL-14,3270-01D,3270-01D Ouv. de regulation Avenue 25,OMAEU de Montreal (Station Jean-R.-Marcotte),MONTREAL (R-D-P),297379.82,5055710.35,21.21,45.6412492462675,-73.5951859135611,297138.94,5056037.17,-73.5982810544546,45.6441874203693
MTL-138,MTL-15,3275-01D,3275-01D S.P. Av 13. - Trop-plein d'orage gravitaire,OMAEU de Montreal (Station Jean-R.-Marcotte),MONTREAL (R-D-P),296455.85,5055239.85,14.53,45.6370051032605,-73.6070305008532,296414.43,5055280.14,-73.6075624883131,45.6373671418393
MTL-139,MTL-16,3275-02D,3275-02D S.P. Av 13. - Trop-plein d'orage pompe,OMAEU de Montreal (Station Jean-R.-Marcotte),MONTREAL (R-D-P),296455.85,5055239.85,14.53,45.6370051032605,-73.6070305008532,296414.43,5055280.14,-73.6075624883131,45.6373671418393
MTL-137,MTL-17,3280-01D,3280-01D Ouv. de regulation Marc-Aurele-Fortin,OMAEU de Montreal (Station Jean-R.-Marcotte),MONTREAL (R-D-P),296542.3,5054909.39,23.86,45.6340325898499,-73.605916005845,296335.41,5055175.41,-73.6085742634312,45.636423801295
MTL-124,MTL-18,3280-02D,3280-02D Trop-plein Renaude-Lapointe/Henri-Bourassa,OMAEU de Montreal (Station Jean-R.-Marcotte),MONTREAL (R-D-P),297039.64,5052653.25,31.41,45.6137370694214,-73.5995010476672,297006.7,5052631.68,-73.5999230493006,45.613542608717
MTL-134,MTL-19,3290-01D,3290-01D Ouv. de regulation Langelier,OMAEU de Montreal (Station Jean-R.-Marcotte),MONTREAL-NORD,295291.03,5053772.67,19.85,45.6237881370813,-73.6219429952051,295068.51,5054065.79,-73.6248024365849,45.6264226124973
MTL-133,MTL-20,3305-01D,3305-01D Racc. Gouin-Langelier,OMAEU de Montreal (Station Jean-R.-Marcotte),MONTREAL-NORD,295120.05,5053989.83,12.7,45.6257398282933,-73.6241399497513,295068.51,5054065.79,-73.6248024365849,45.6264226124973
MTL-131,MTL-21,3305-02D,3305-02D Racc. Gouin-Rolland,OMAEU de Montreal (Station Jean-R.-Marcotte),MONTREAL-NORD,294815.17,5053714.41,12.51,45.6232572241912,-73.6280442136267,294731.91,5053790.9,-73.6291135066657,45.6239442960817
MTL-129,MTL-22,3305-03D,3305-03D Ouv. Lacordaire - Trop-plein d'orage,OMAEU de Montreal (Station Jean-R.-Marcotte),MONTREAL-NORD,294439.11,5053309.84,11.76,45.6196113078804,-73.6328581487891,294410.5,5053343.73,-73.6332257372849,45.6199158303584
MTL-130,MTL-23,3305-04D,3305-04D Ouv. Lacordaire - Trop-plein d'urgence,OMAEU de Montreal (Station Jean-R.-Marcotte),MONTREAL-NORD,294439.11,5053309.84,11.76,45.6196113078804,-73.6328581487891,294410.5,5053343.73,-73.6332257372849,45.6199158303584
MTL-127,MTL-24,3305-05D,3305-05D Deriv. Gouin-Lanthier,OMAEU de Montreal (Station Jean-R.-Marcotte),MONTREAL-NORD,294276.54,5052974.27,12.12,45.6165893307462,-73.6349355426246,294240.01,5052990.12,-73.6354042851996,45.6167313984095
MTL-126,MTL-25,3305-06D,3305-06D Deriv. Gouin-Salk,OMAEU de Montreal (Station Jean-R.-Marcotte),MONTREAL-NORD,294165.78,5052639.52,12.25,45.6135754878076,-73.6363484428235,294135.83,5052678.87,-73.6367333111471,45.6139291091707
MTL-123,MTL-26,3305-07D,3305-07D Deriv. Gouin-Brunet,OMAEU de Montreal (Station Jean-R.-Marcotte),MONTREAL-NORD,294081.01,5052379.1,12.97,45.611230866019,-73.6374296091201,294037.53,5052434.93,-73.6379883023324,45.6117325653659
MTL-128,MTL-27,3310-01D,3310-01D Ouv. de regulation Lanthier,OMAEU de Montreal (Station Jean-R.-Marcotte),MONTREAL-NORD,294557.42,5052671.85,19.58,45.6138722834734,-73.6313276571557,294242.58,5052996.48,-73.6353714694581,45.616788666175
MTL-116,MTL-30,3340-01D,3340-01D Ouv. d'Interc. Plaza,OMAEU de Montreal (Station Jean-R.-Marcotte),MONTREAL-NORD,293285.86,5050518.15,19.83,45.5944728678094,-73.647580390029,293242.5,5050580.83,-73.6481376309899,45.5950361591248
MTL-115,MTL-34,3350-01D,3350-01D Ouv. de regulation Lausanne,OMAEU de Montreal (Station Jean-R.-Marcotte),MONTREAL-NORD,292950.78,5049977.99,15.09,45.5896067398673,-73.6518620927568,292989.92,5050140.34,-73.6513643947496,45.5910682732204
MTL-113,MTL-35,3350-02D,3350-02D Ouv. de racc. Etienne-Brule,OMAEU de Montreal (Station Jean-R.-Marcotte),MONTREAL ,292430.82,5048723.69,,45.5783111596703,-73.6584942214581,292372.65,5048839.84,-73.6592425423213,45.5793552728127
MTL-112,MTL-36,3350-03D,3350-03D Emissaire 07,OMAEU de Montreal (Station Jean-R.-Marcotte),MONTREAL ,292466.49,5048741.92,17.84,45.5784758314721,-73.6580376208424,292372.65,5048839.84,-73.6592425423213,45.5793552728127
MTL-110,MTL-37,3350-04D,3350-04D Trop-plein Du Pressoir,OMAEU de Montreal (Station Jean-R.-Marcotte),MONTREAL ,292291.02,5048480.52,9.43,45.5761205491279,-73.6602793361268,292280.31,5048486.82,-73.6604167257454,45.5761770456683
MTL-109,MTL-38,3350-05D,3350-05D Trop-plein Barrage Simon-Sicard,OMAEU de Montreal (Station Jean-R.-Marcotte),MONTREAL ,292127.44,5047851.67,21.27,45.5704590189586,-73.6623589956198,292121.86,5047891.14,-73.6624315092284,45.5708140797228
MTL-104,MTL-39,3350-06D,3350-06D Trop-plein St-Denis,OMAEU de Montreal (Station Jean-R.-Marcotte),MONTREAL ,291257.48,5046144.76,21.31,45.5550833555264,-73.6734574750639,291197.24,5046175.02,-73.6742298885238,45.5553544700881
MTL-95,MTL-40,3350-07D,3350-07D Trop-plein Salaberry,OMAEU de Montreal (Station Jean-R.-Marcotte),MONTREAL ,289800.82,5045155.02,20.75,45.546147520448,-73.6920844615475,289811.91,5045317.05,-73.6919474022914,45.5476057553905
MTL-91,MTL-41,3350-08D,3350-08D Trop-plein Bohle,OMAEU de Montreal (Station Jean-R.-Marcotte),MONTREAL ,288511.41,5044489.24,24.65,45.5401276683984,-73.7085748124998,288416.52,5044664.4,-73.7097957292012,45.5417015873819
MTL-91,MTL-41,3350-08D,3350-08D Trop-plein Bohle,OMAEU de Montreal (Station Jean-R.-Marcotte),MONTREAL ,288511.41,5044489.24,24.65,45.5401276683984,-73.7085748124998,288411.21,5044660.56,-73.7098635964445,45.541666908979
MTL-85,MTL-31,3350-09D,3350-09D S.P. Lavigne - Trop-plein d'orage,OMAEU de Montreal (Station Jean-R.-Marcotte),MONTREAL ,288162.22,5044149.4,23.72,45.5370614306064,-73.7130345991028,288103.41,5044219.72,-73.7137900106765,45.5376927852086
MTL-85,MTL-31,3350-09D,3350-09D S.P. Lavigne - Trop-plein d'orage,OMAEU de Montreal (Station Jean-R.-Marcotte),MONTREAL ,288162.22,5044149.4,23.72,45.5370614306064,-73.7130345991028,288106,5044222.82,-73.7137569531746,45.5377207420386
MTL-82,MTL-32,3350-10D,3350-10D S.P. Lavigne - Trop-plein d'urgence,OMAEU de Montreal (Station Jean-R.-Marcotte),MONTREAL ,288176.53,5044160.73,23.73,45.5371637230615,-73.7128517559394,,,,
MTL-83,MTL-33,3350-11D,3350-11D Trop-plein Notre-Dame-de-Grace,OMAEU de Montreal (Station Jean-R.-Marcotte),MONTREAL ,288674.81,5043675.6,25.28,45.5328100773675,-73.7064557017175,288103.28,5044219.52,-73.7137916684185,45.5376909824308
MTL-83,MTL-33,3350-11D,3350-11D Trop-plein Notre-Dame-de-Grace,OMAEU de Montreal (Station Jean-R.-Marcotte),MONTREAL ,288674.81,5043675.6,25.28,45.5328100773675,-73.7064557017175,288106.09,5044222,-73.7137557728281,45.5377133655786
MTL-107,MTL-42,3370-01D,3370-01D Ouv. de regulation Curotte,OMAEU de Montreal (Station Jean-R.-Marcotte),MONTREAL ,292067.14,5047273.91,18.21,45.5652590656441,-73.6631164992235,292037.44,5047284.38,-73.6634972479334,45.5653527338834
MTL-103,MTL-43,3380-01D,3380-01D Ouv. de regulation Auteuil,OMAEU de Montreal (Station Jean-R.-Marcotte),MONTREAL ,291500.59,5045945.92,22.23,45.553298817335,-73.6703382431457,291149.8,5046113.65,-73.6748358047897,45.5548013156888
MTL-101,MTL-44,3390-01D,3390-01D Ouv. de regulation St-Laurent,OMAEU de Montreal (Station Jean-R.-Marcotte),MONTREAL ,291389.06,5045641.67,21.88,45.5505589418393,-73.6717583685381,290982.04,5045820.06,-73.6769762222008,45.5521561938143
MTL-99,MTL-45,3400-01D,3400-01D Ouv. de regulation Meilleur,OMAEU de Montreal (Station Jean-R.-Marcotte),MONTREAL ,291093.69,5044856.47,26.04,45.543487711836,-73.6755192622986,290582.65,5045536.58,-73.6820832251513,45.5495973139504
MTL-99,MTL-45,3400-01D,3400-01D Ouv. de regulation Meilleur,OMAEU de Montreal (Station Jean-R.-Marcotte),MONTREAL ,291093.69,5044856.47,26.04,45.543487711836,-73.6755192622986,290586.44,5045538.61,-73.6820347453996,45.5496156578794
MTL-81,MTL-47,3410-02D,3410-02D Trop-plein Decarie-Raimbault,OMAEU de Montreal (Station Jean-R.-Marcotte),ST-LAURENT,289492.87,5043636.47,,45.5324764220368,-73.6959806716711,288411.21,5044660.56,-73.7098635964445,45.541666908979
MTL-70,MTL-49,3450-01D,3450-01D S.P. Saraguay - Trop-plein d'orage pompe,OMAEU de Montreal (Station Jean-R.-Marcotte),MONTREAL ,284909.39,5041321.04,25.87,45.5115257113576,-73.7545695128653,284911.54,5041362.35,-73.7545436720545,45.5118974935891
MTL-68,MTL-51,3460-01D,3460-01D Ouv. de regulation Pitfield,OMAEU de Montreal (Station Jean-R.-Marcotte),PIERREFONDS,284637.23,5040717.08,25.73,45.5060832645391,-73.7580278787296,284546.18,5040825.84,-73.7591975471947,45.5070592852918
MTL-69,MTL-52,3480-01D,3480-01D Lot 28 - Trop-plein d'urgence,OMAEU de Montreal (Station Jean-R.-Marcotte),DOLLARD-DES-ORMEAUX,282652.67,5041016.07,21.54,45.5087134802427,-73.7834379797112,282673.49,5041110.84,-73.7831758080819,45.5095669109522
MTL-61,MTL-53,3480-02D,3480-02D T.-P. S.P. Spring Garden no 1,OMAEU de Montreal (Station Jean-R.-Marcotte),DOLLARD-DES-ORMEAUX,282074.66,5039893.63,25.43,45.498594819572,-73.7907831630771,282716.75,5041131.42,-73.7826230987575,45.5097534672873
MTL-60,MTL-54,3480-03D,3480-03D T.-P. S.P. Spring Garden no 2,OMAEU de Montreal (Station Jean-R.-Marcotte),DOLLARD-DES-ORMEAUX,281723.41,5039734.97,25.51,45.497155617015,-73.7952700775683,282716.75,5041131.42,-73.7826230987575,45.5097534672873
MTL-64,DDO-55,3480-04D,3480-04D T.-P. S.P. Spring Garden no 3,Secteur DDO,DOLLARD-DES-ORMEAUX,282345.03,5040057.63,24.6,45.5000792985953,-73.7873311808352,282716.75,5041131.42,-73.7826230987575,45.5097534672873
MTL-62,DDO-56,3480-05D,3480-05D T.-P. S.P. Spring Garden no 4,Secteur DDO,DOLLARD-DES-ORMEAUX,282642.6,5039891.28,24.85,45.498591941254,-73.7835160445453,282716.75,5041131.42,-73.7826230987575,45.5097534672873
MTL-67,MTL-57,3490-01D,3490-01D Trop-plein 8e rue/Prince-Edward,OMAEU de Montreal (Station Jean-R.-Marcotte),ROXBORO,280714.04,5040799.31,23.34,45.5066987557003,-73.8082372630087,280324.22,5041793.7,-73.8132755014038,45.5156329879445
MTL-66,MTL-58,3490-02D,3490-02D Trop-plein 9e rue/13e avenue,OMAEU de Montreal (Station Jean-R.-Marcotte),ROXBORO,280883.81,5040651,24.49,45.5053700600816,-73.8060574505907,280324.22,5041793.7,-73.8132755014038,45.5156329879445
MTL-74,MTL-59,3500-01D,3500-01D Ch. de vannes Desjardins - T.-P. d'urgence,OMAEU de Montreal (Station Jean-R.-Marcotte),PIERREFONDS,277632.84,5041361.68,24.52,45.5116458996299,-73.8476990261853,277545.4,5041502.35,-73.8488259260633,45.5129082714788
MTL-76,MTL-60,3500-02D,3500-02D Trop-plein Richer/Allard,OMAEU de Montreal (Station Jean-R.-Marcotte),PIERREFONDS,279075.76,5041149.17,26.42,45.5097883949825,-73.8292209746723,279266.51,5041914.31,-73.8268196286409,45.5166803390219
MTL-73,MTL-61,3500-03D,3500-03D S.P. Fleming/Leger (Pierrefonds),OMAEU de Montreal (Station Jean-R.-Marcotte),PIERREFONDS,278353.96,5041216.84,26.02,45.5103703106505,-73.8384621209207,277545.4,5041502.35,-73.8488259260633,45.5129082714788
MTL-56,MTL-62,3520-01D,3520-01D Deriv. Bourget,OMAEU de Montreal (Station Jean-R.-Marcotte),ILE-BIZARD,276470.24,5038576.42,27.46,45.4865371575423,-73.8624174527381,276401.48,5038718.06,-73.8633052621297,45.4878088789072
MTL-65,MTL-63,3530-01D,3530-01D S.P. Marcellin,OMAEU de Montreal (Station Jean-R.-Marcotte),ILE-BIZARD,276456.93,5040696.9,27.05,45.5056172491289,-73.8627101966993,276505.43,5040462.06,-73.8620760012134,45.5035060696381
MTL-53,MTL-64,3540-01D,3540-01D Deriv. St-Martin,OMAEU de Montreal (Station Jean-R.-Marcotte),STE-GENEVIEVE,275534.77,5037741.95,,45.4789897758663,-73.8743347660441,275508.61,5037762.53,-73.8746706016104,45.4791738633407
MTL-55,MTL-65,3540-02D,3540-02D T.-P. Lavigne/Gatien-Claude,OMAEU de Montreal (Station Jean-R.-Marcotte),STE-GENEVIEVE,275663.69,5037311.39,26.52,45.4751208681397,-73.8726602325894,276120.39,5038638.17,-73.86689653532,45.4870785135434
MTL-47,MTL-66,3560-01D,3560-01D Usine de filt. Pierrefonds - T.-P. d'urgence,OMAEU de Montreal (Station Jean-R.-Marcotte),PIERREFONDS,274046.3,5036250.52,25.32,45.4655055124911,-73.8932801566939,274021.29,5036416.06,-73.8936103451308,45.4669939854741
MTL-4,SAB-67,3580-01D,3580-01D P.P. Terrasse Maxime (Marc-Antoine),OMAEU de Sainte-Anne-de-Bellevue,STE-ANNE-DE-BELLEVUE,269039.04,5029941.2,25.48,45.4084942789389,-73.9568530289178,269008.16,5029926.16,-73.9572464221934,45.4083573661028
MTL-119,MTL-68,3750-01D,3750-01D S.P. Henault,OMAEU de Montreal (Station Jean-R.-Marcotte),MONTREAL-NORD,293907.03,5052093.83,11.6,45.6086612345375,-73.6396538529431,293885.85,5052130.98,-73.6399262225254,45.608995186739
MTL-111,MTL-69,3762-01D,3762-01D S.P. Ile-de-la-Visitation - T.-P. d'urgence,OMAEU de Montreal (Station Jean-R.-Marcotte),MONTREAL ,292163.07,5048512.55,13.53,45.5764064520299,-73.6619195993924,292194.74,5048525.52,-73.661514141332,45.576523734148
MTL-94,MTL-71,3767-01D,3767-01D S.P. de St-Real,OMAEU de Montreal (Station Jean-R.-Marcotte),MONTREAL ,289102.41,5045091.58,20.51,45.5455612783934,-73.7010264421467,289014.81,5045130.14,-73.7021495016805,45.5459062734461
MTL-93,MTL-72,3768-01D,3768-01D S.P. Bois-de-Boulogne,OMAEU de Montreal (Station Jean-R.-Marcotte),MONTREAL ,289075.2,5045010.66,22.19,45.544832521586,-73.7013722968771,288975.13,5045062.3,-73.7026554580828,45.5452949279756
MTL-54,MTL-73,3780-01D,3780-01D S.P. Du Pont,OMAEU de Montreal (Station Jean-R.-Marcotte),STE-GENEVIEVE,275976.15,5038470.91,24.16,45.4855675212272,-73.868731931176,275948.7,5038500.84,-73.8690848394043,45.4858357054069
MTL-52,MTL-74,3781-01D,3781-01D S.P. Beaulieu,OMAEU de Montreal (Station Jean-R.-Marcotte),STE-GENEVIEVE,275297.97,5037004.11,24.7,45.4723405202765,-73.8773193236668,275273.98,5037045.71,-73.877628639521,45.4727138349402
MTL-51,MTL-75,3782-01D,3782-01D S.P. St-Jean-Baptiste,OMAEU de Montreal (Station Jean-R.-Marcotte),STE-GENEVIEVE,275262.42,5036976.31,24.14,45.4720888652461,-73.8777723129493,275228.6,5037037.84,-73.8782085492568,45.4726410982676
MTL-3,MTL-76,3790-01D,3790-01D S.P. Ste-Anne-de-Bell. - Trop-plein Kent,OMAEU de Montreal (Station Jean-R.-Marcotte),STE-ANNE-DE-BELLEVUE,269840.18,5029295.48,23.6,45.4027243659895,-73.946572846061,269846.01,5029260.86,-73.9464959226715,45.4024131354361
MTL-2,MTL-77,3790-02D,3790-02D S.P. Ste-Anne-de-Bell. - Deviat. d'urgence,OMAEU de Montreal (Station Jean-R.-Marcotte),STE-ANNE-DE-BELLEVUE,269875.88,5029265.96,23.54,45.4024605176801,-73.9461147415324,269882.46,5029242.02,-73.9460289972006,45.4022454262252
MTL-161,MTL-78,4210-01D,4210-01D Deriv. Henri-Bourassa,OMAEU de Montreal (Station Jean-R.-Marcotte),MONTREAL (R-D-P),304216.68,5058557.67,11.59,45.6669093845448,-73.5074862348035,305600.86,5060243.51,-73.4897191146864,45.6820786236215
MTL-149,MTL-79,4230-01D,4230-01D T.-P. La Gauchetiere/40e avenue,OMAEU de Montreal (Station Jean-R.-Marcotte),MONTREAL (R-D-P),304932.46,5058021.99,11.79,45.662089474889,-73.4983001755998,305663.4,5057663.71,-73.4889208504608,45.6588650819734
MTL-154,MTL-80,4230-02D,4230-02D Deriv. Avenue 52 (PAT),OMAEU de Montreal (Station Jean-R.-Marcotte),MONTREAL (R-D-P),305442.85,5058819.05,9.01,45.669261273354,-73.4917494212587,305484.69,5058809.33,-73.4912124446509,45.6691737711265
MTL-155,MTL-81,4230-03D,4230-03D Deriv. 54e avenue (PAT),OMAEU de Montreal (Station Jean-R.-Marcotte),MONTREAL (R-D-P),305440.14,5058956.41,9.1,45.6704972639715,-73.4917840215858,305495.67,5058943.42,-73.4910713315822,45.6703803243272
MTL-156,MTL-82,4230-04D,4230-04D Deriv. Avenue 55 (PAT),OMAEU de Montreal (Station Jean-R.-Marcotte),MONTREAL (R-D-P),305447.63,5059046.65,8.96,45.6713092513905,-73.4916877697973,305495.7,5059034.3,-73.4910708165109,45.6711980775102
MTL-158,MTL-83,4230-05D,4230-05D Deriv. 57e avenue (PAT),OMAEU de Montreal (Station Jean-R.-Marcotte),MONTREAL (R-D-P),305461.16,5059212.5,11.55,45.6728015839183,-73.4915138888221,305521.42,5059199.04,-73.4907404605326,45.6726804085937
MTL-160,MTL-84,4230-06D,4230-06D Conduite en rive du fleuve - T.-P. d'urgence,OMAEU de Montreal (Station Jean-R.-Marcotte),MONTREAL (R-D-P),305572.91,5060245.45,8.97,45.6820961117506,-73.4900779143129,305600.86,5060243.51,-73.4897191146864,45.6820786236215
MTL-163,MTL-85,4230-07D,4230-07D Trop-plein Avenue 81 (PAT),OMAEU de Montreal (Station Jean-R.-Marcotte),MONTREAL (R-D-P),305869.13,5060987.47,9.86,45.6887725191275,-73.4862736134464,305940.25,5060952.47,-73.4853605974936,45.688457471002
MTL-165,MTL-86,4230-08D,4230-08D Trop-plein 93e avenue/Bellerive (PAT),OMAEU de Montreal (Station Jean-R.-Marcotte),MONTREAL (R-D-P),306286.45,5061882.54,10.11,45.6968257055845,-73.4809129704511,306382.14,5061941.22,-73.4796840546041,45.6973535035412
MTL-168,MTL-87,4230-09D,4230-09D SP 96e AVE,OMAEU de Montreal (Station Jean-R.-Marcotte),MONTREAL (R-D-P),306361.71,5062120.42,8.347,45.6989660131747,-73.4799458157567,306361.714,5062120.418,-73.4799457643984,45.6989659951695
MTL-143,MTL-88,4240-01D,4240-01D Ouv. de regulation Avenue 24 (PAT),OMAEU de Montreal (Station Jean-R.-Marcotte),MONTREAL ,305754.82,5056647.57,11.91,45.649721540632,-73.4877497426634,305849.27,5056662.96,-73.4865379242573,45.6498598865326
MTL-142,MTL-89,4240-02D,4240-02D Emissaire d'urgence Avenue 24 (PAT),OMAEU de Montreal (Station Jean-R.-Marcotte),MONTREAL ,305757.74,5056656.45,19.29,45.6498014406063,-73.487712261847,305853.63,5056670.75,-73.4864819688394,45.6499299758872
MTL-140,MTL-90,4250-01D,4250-01D Ouv. de regul. St-Jean-Baptiste Sud (PAT),OMAEU de Montreal (Station Jean-R.-Marcotte),MONTREAL ,305724.22,5055535.87,13.25,45.6397182765394,-73.4881444482065,305802.58,5055517.37,-73.4871393132623,45.6395517008487
MTL-136,MTL-91,4260-01D,4260-01D Ouv. de regulation Laurendeau,OMAEU de Montreal (Station Jean-R.-Marcotte),MONTREAL-EST,305193.18,5054547.51,12.21,45.6308252986322,-73.4949572302933,305269.53,5054476.91,-73.4939780637115,45.6301899762762
MTL-132,MTL-92,4265-01D,4265-01D Ouv. de regulation Richard,OMAEU de Montreal (Station Jean-R.-Marcotte),MONTREAL-EST,304870.66,5054007.97,11.78,45.6259705002789,-73.4990938212814,305045.92,5054006.88,-73.4968462010833,45.6259606522636
MTL-121,MTL-93,4270-01D,4270-01D Ouv. de regulation Gonthier - Deriv. Gonthier,OMAEU de Montreal (Station Jean-R.-Marcotte),MONTREAL ,304123.62,5052283.77,11.17,45.610455395465,-73.5086718390714,304257.41,5052334.09,-73.5069565791895,45.6109083052319
MTL-122,MTL-94,4270-02D,4270-02D Ouv. de regulation Gonthier - Deriv. Georges V,OMAEU de Montreal (Station Jean-R.-Marcotte),MONTREAL ,304145.52,5052361.59,,45.6111556610006,-73.5083911645289,304257.41,5052334.09,-73.5069565791895,45.6109083052319
MTL-118,MTL-95,4280-01D,4280-01D Ouv. de regulation Parc Clement-Jette,OMAEU de Montreal (Station Jean-R.-Marcotte),MONTREAL ,303933.75,5051226.44,12.53,45.6009410463854,-73.5111042769159,304593.52,5051279.05,-73.502646846061,45.6014149546458
MTL-117,MTL-159,4280-02D,4280-02D TP coll. Mercier,OMAEU de Montreal (Station Jean-R.-Marcotte),MONTREAL ,304004.58,5050961.98,11.534,45.5985614466678,-73.510195891013,304090.87,5050971.8,-73.509089818655,45.5986499031307
MTL-114,MTL-96,4290-01D,4290-01D Ouv. de regulation De Boucherville,OMAEU de Montreal (Station Jean-R.-Marcotte),MONTREAL ,304167.4,5049415.51,11.89,45.5846460282599,-73.508106820211,304310.32,5049354.45,-73.5062752276393,45.5840967072594
MTL-108,MTL-97,4300-01D,4300-01D Ouv. de regulation Clarence-Gagnon,OMAEU de Montreal (Station Jean-R.-Marcotte),MONTREAL ,303180.99,5047864.21,13.59,45.5706853510347,-73.5207426034626,303441.78,5047685.42,-73.5174008899587,45.5690770984901
MTL-106,MTL-98,4310-01D,4310-01D Ouv. de regulation Dickson,OMAEU de Montreal (Station Jean-R.-Marcotte),MONTREAL ,302985,5047214.34,13.93,45.564837124656,-73.5232511959336,303249.79,5047119.78,-73.5198587838683,45.5639868823771
MTL-105,MTL-99,4315-01D,4315-01D Ouv. d'interc. Lot 13,OMAEU de Montreal (Station Jean-R.-Marcotte),MONTREAL ,302903.47,5046990.75,14.39,45.5628249699635,-73.5242947749065,303150.08,5046949.98,-73.521135534143,45.5624587360008
MTL-102,MTL-100,4317-01D,4317-01D Ouv. d'interc. Viau,OMAEU de Montreal (Station Jean-R.-Marcotte),MONTREAL ,302638.55,5046301.78,12.8,45.5566246118394,-73.5276853863821,303001.67,5046015.1,-73.5230332341237,45.5540459983047
MTL-96,MTL-101,4320-01D,4320-01D Ouv. de regulation De La Salle,OMAEU de Montreal (Station Jean-R.-Marcotte),MONTREAL ,302403.35,5045433.89,13.68,45.5488142636998,-73.5306937431795,302608.41,5045340.4,-73.5280671345287,45.5479736827068
MTL-90,MTL-102,4330-01D,4330-01D Joliette - Deriv. Nicolet,OMAEU de Montreal (Station Jean-R.-Marcotte),MONTREAL ,302046.03,5044874.22,14.16,45.5437768302642,-73.5352667674884,302070.28,5044542,-73.5349543745453,45.5407874883955
MTL-89,MTL-103,4330-02D,4330-02D Joliette - Deriv. Dezery,OMAEU de Montreal (Station Jean-R.-Marcotte),MONTREAL ,301723.03,5044305,,45.5386534275404,-73.5393994597361,301853.73,5044240.21,-73.5377255052149,45.5380709879463
MTL-79,MTL-104,4340-01D,4340-01D Parc Bellerive - Deriv. Mont-Royal,OMAEU de Montreal (Station Jean-R.-Marcotte),MONTREAL ,301327.91,5042922.31,19.33,45.5262095990317,-73.5444490213536,301424.11,5042848.35,-73.5432169784026,45.525544550553
MTL-78,MTL-105,4340-02D,4340-02D Parc Bellerive - Deriv. Parc Lafontaine,OMAEU de Montreal (Station Jean-R.-Marcotte),MONTREAL ,301330.5,5042921.28,19.33,45.5262003435858,-73.5444158573931,301424.11,5042848.35,-73.5432169784026,45.525544550553
MTL-77,MTL-106,4340-03D,4340-03D Ouv. de raccordement Papineau,OMAEU de Montreal (Station Jean-R.-Marcotte),MONTREAL ,301038.56,5042311.59,18.46,45.5207125979843,-73.5481485345182,301303.69,5042174.5,-73.5447537454147,45.5194803873192
MTL-63,MTL-107,4350-01D,4350-01D Ouv. de regulation McGill,OMAEU de Montreal (Station Jean-R.-Marcotte),MONTREAL ,300502.6,5039906.74,,45.4990696612931,-73.5549880436019,300705.02,5040010.1,-73.5523988111171,45.5000009566767
MTL-59,MTL-108,4360-01D,4360-01D Ouv. de regulation Riverside,OMAEU de Montreal (Station Jean-R.-Marcotte),MONTREAL ,300833.07,5038976.24,15.15,45.4906985704936,-73.5507519439122,300925.96,5039080.21,-73.5495643527454,45.4916346607152
MTL-50,MTL-109,4370-01D,4370-01D Ouv. de regulation St-Pierre - Bas-niveau,OMAEU de Montreal (Station Jean-R.-Marcotte),VERDUN,300137.99,5036822.98,,45.4713182488674,-73.5596241843374,300158.02,5036806.41,-73.559367856796,45.4711692775517
MTL-49,MTL-110,4370-02D,4370-02D Ouv. de regulation St-Pierre - Haut-niveau,OMAEU de Montreal (Station Jean-R.-Marcotte),VERDUN,300138.86,5036824.22,,45.4713294127845,-73.559613069352,300158.02,5036806.41,-73.559367856796,45.4711692775517
MTL-28,MTL-111,4370-03D,4370-03D Station de pompage Avenue 48 - pompe #3,OMAEU de Montreal (Station Jean-R.-Marcotte),LACHINE,288411.01,5033000.14,26.23,45.4367418765302,-73.7094768628453,288417.93,5032917.33,-73.7093856591804,45.4359968749383
MTL-29,MTL-112,4370-04D,4370-04D Station de pompage Avenue 48 - pompe #4,OMAEU de Montreal (Station Jean-R.-Marcotte),LACHINE,288411.01,5033000.14,26.23,45.4367418765302,-73.7094768628453,288417.93,5032917.33,-73.7093856591804,45.4359968749383
MTL-32,MTL-113,4370-05D,4370-05D Trop-plein Rockfield,OMAEU de Montreal (Station Jean-R.-Marcotte),LACHINE,292520.4,5033329.82,24.79,45.4397927491256,-73.6569609033448,292818.6,5033062.91,-73.6531427533496,45.4373961335875
MTL-48,MTL-114,4380-01D,4380-01D Ouv. de regulation Rheaume,OMAEU de Montreal (Station Jean-R.-Marcotte),VERDUN,299819.91,5036426.6,,45.4677492364266,-73.5636882085225,300393.6,5036638.84,-73.5563534431022,45.4696629288373
MTL-46,MTL-115,4390-01D,4390-01D Ouv. d'interc. Ile-des-Soeurs,OMAEU de Montreal (Station Jean-R.-Marcotte),VERDUN,300461.17,5035761.52,14.62,45.4617688009508,-73.5554815461409,300348.73,5035753.21,-73.5569192644934,45.4616933160895
MTL-45,MTL-116,4400-01D,4400-01D Ouv. de regulation Avenue 1,OMAEU de Montreal (Station Jean-R.-Marcotte),VERDUN,299946.8,5035414.4,16.8,45.4586418600932,-73.5620554749817,300085.54,5035408.73,-73.5602814216596,45.4585917885948
MTL-41,MTL-117,4400-02D,4400-02D Trop-plein Beatty/Av. Verdun,OMAEU de Montreal (Station Jean-R.-Marcotte),VERDUN,299133.31,5034534.91,16.17,45.4507216452619,-73.5724470285674,299592.92,5034457.64,-73.5665702309477,45.4500299062245
MTL-36,MTL-118,4420-01D,4420-01D Ouv. de regulation Stephens,OMAEU de Montreal (Station Jean-R.-Marcotte),VERDUN,298804.41,5033731.17,16.86,45.443486437973,-73.5766421234601,298936.41,5033620.76,-73.5749534423804,45.4424940313537
MTL-35,MTL-119,4420-02D,4420-02D Deriv. Stephens I,OMAEU de Montreal (Station Jean-R.-Marcotte),VERDUN,298822.59,5033682.4,17.08,45.4430477360016,-73.5764091348025,298936.41,5033620.76,-73.5749534423804,45.4424940313537
MTL-38,MTL-121,4420-04D,4420-04D Trop-plein Richard/Boul. Lasalle,OMAEU de Montreal (Station Jean-R.-Marcotte),VERDUN,299344.35,5034285.99,16,45.4484834159814,-73.5697461832475,299426.11,5034226.49,-73.5687002969263,45.4479486380386
MTL-25,MTL-122,4430-01D,4430-01D Ouv. de regulation Alepin,OMAEU de Montreal (Station Jean-R.-Marcotte),LASALLE,297878.04,5032503.42,19.36,45.4324299426554,-73.588466709013,297940.58,5032484.73,-73.5876671516922,45.4322623763532
MTL-26,MTL-123,4430-02D,4430-02D Trop-plein Senecal/Boul. Lasalle,OMAEU de Montreal (Station Jean-R.-Marcotte),LASALLE,297998.52,5032727.17,18.56,45.4344445459333,-73.5869299967944,298107.67,5032690.94,-73.5855344552147,45.4341195823937
MTL-5,MTL-124,4430-03D,4430-03D Derivation Canal de l'Aqueduc,OMAEU de Montreal (Station Jean-R.-Marcotte),LASALLE,294601.47,5030565.07,22.25,45.4149475279697,-73.6303029724176,294698.04,5030520.11,-73.6290682136038,45.4145443541486
MTL-5,MTL-124,4430-03D,4430-03D Derivation Canal de l'Aqueduc,OMAEU de Montreal (Station Jean-R.-Marcotte),LASALLE,294601.47,5030565.07,22.25,45.4149475279697,-73.6303029724176,294600.61,5030542.69,-73.6303134971214,45.414746127964
MTL-11,MTL-125,4430-04D,4430-04D Derivation Orchard,OMAEU de Montreal (Station Jean-R.-Marcotte),LASALLE,293159.12,5031099.29,31.54,45.4197322166114,-73.6487439247699,293171.17,5031042.34,-73.6485886095848,45.419219950603
MTL-11,MTL-125,4430-04D,4430-04D Derivation Orchard,OMAEU de Montreal (Station Jean-R.-Marcotte),LASALLE,293159.12,5031099.29,31.54,45.4197322166114,-73.6487439247699,293145.54,5031084.1,-73.648917086326,45.4195953028221
MTL-16,MTL-126,4430-05D,4430-05D Deversoir Highlands,OMAEU de Montreal (Station Jean-R.-Marcotte),LASALLE,292492.71,5031574.23,30.66,45.4239945700363,-73.657270960127,292485.85,5031549.73,-73.6573580090809,45.4237739855284
MTL-19,MTL-127,4430-06D,4430-06D S.P. Lyette,OMAEU de Montreal (Station Jean-R.-Marcotte),LASALLE,291853.5,5032284.04,23.67,45.4303702658074,-73.6654578479344,291856.45,5032033.33,-73.6654135569842,45.4281143041047
MTL-31,MTL-130,4520-01D,4520-01D S.P. St-Charles,OMAEU de Montreal (Station Jean-R.-Marcotte),DORVAL,286885.3,5033419.83,23.82,45.4404810133232,-73.7289929425648,286968.1,5033031.36,-73.7279204940025,45.4369874981669
MTL-34,MTL-132,4530-02D,4530-02D S.P. no 4 (Dorval) (Bord-du-Lac),OMAEU de Montreal (Station Jean-R.-Marcotte),DORVAL,283588.7,5033460.11,,45.4407512215033,-73.7711327155504,283592.31,5033438.46,-73.7710856384275,45.4405565150568
MTL-42,MTL-133,4560-01D,4560-01D Trop-plein Chester,OMAEU de Montreal (Station Jean-R.-Marcotte),POINTE-CLAIRE,282564.46,5034594.76,26.37,45.4509294405501,-73.7842761478273,282500.24,5034235.16,-73.7850808739822,45.4476915683232
MTL-43,MTL-134,4560-02D,4560-02D Trop-plein regard 1254,OMAEU de Montreal (Station Jean-R.-Marcotte),POINTE-CLAIRE,282574.95,5034604.67,26.18,45.4510189483965,-73.7841424850749,282500.24,5034235.16,-73.7850808739822,45.4476915683232
MTL-44,MTL-135,4560-03D,4560-03D Trop-plein Vincennes,OMAEU de Montreal (Station Jean-R.-Marcotte),POINTE-CLAIRE,282698.49,5034699.6,26.37,45.4518770846698,-73.7825673376686,282500.24,5034235.16,-73.7850808739822,45.4476915683232
MTL-21,MTL-137,4600-01D,4600-01D Deriv. Victoria I,OMAEU de Montreal (Station Jean-R.-Marcotte),POINTE-CLAIRE,279574.88,5032270.35,23.35,45.4299119859904,-73.822377515926,279659.33,5032197.31,-73.8212945314538,45.4292577834165
MTL-27,PTC-139,4600-03D,4600-03D Trop-plein Crewe,OMAEU de Pointe-Claire,POINTE-CLAIRE,279561.02,5032987.22,26.42,45.436362167529,-73.8225913929678,279895.78,5032486.41,-73.8182873995221,45.431867682303
MTL-22,MTL-140,4610-01D,4610-01D S.P. no 1,OMAEU de Montreal (Station Jean-R.-Marcotte),BEACONSFIELD,278377.05,5032601.76,24.84,45.4328499114496,-73.8377033291123,277772.08,5032264.57,-73.8454166099615,45.4297926270275
MTL-20,BCF-141,4610-06D,4610-06D S.P. no 6  (Amovible),OMAEU de Beaconsfield,BEACONSFIELD,276917.88,5032352.05,29.05,45.4305462711811,-73.8563380235751,277418.22,5032099.95,-73.8499297003533,45.4282975489121
MTL-7,BCF-142,4620-01D,4620-01D S.P. no 7,OMAEU de Beaconsfield,BEACONSFIELD,274667.42,5030703.93,24.92,45.4156225612636,-73.884997823875,274702.34,5030669.26,-73.8845495508252,45.4153120908585
MTL-8,BCF-143,4620-02D,4620-02D S.P. no 9,OMAEU de Beaconsfield,BEACONSFIELD,274450.63,5030676.14,25.8,45.4153631272592,-73.8877659304141,274456.73,5030601.57,-73.8876834027278,45.4146923838702
MTL-15,BCF-144,4620-03D,4620-03D S.P. no 10 (Amovible),OMAEU de Beaconsfield,BEACONSFIELD,274241.97,5031361.72,33.31,45.4215231378709,-73.8904743809142,274456.73,5030601.57,-73.8876834027278,45.4146923838702
MTL-9,BCF-145,4620-04D,4620-04D Trop-plein de la Vanne B (anc. Woodland-Lakesh),OMAEU de Beaconsfield,BEACONSFIELD,274716.04,5030740.66,25.09,45.4159551633301,-73.8843788724154,274748.37,5030683.23,-73.8839623033296,45.4154397764617
MTL-17,BCF-146,4620-05D,4620-05D S.P. no 8  (Amovible),OMAEU de Beaconsfield,BEACONSFIELD,274267.94,5031790.98,32.55,45.4253869023191,-73.8901691470772,274236.38,5031854.82,-73.8905764043247,45.4259599782438
MTL-13,BCF-147,4620-06D,4620-06D S.P. no 11 (Amovible),OMAEU de Beaconsfield,BEACONSFIELD,276022.5,5032805.2,32.03,45.4345876053711,-73.8678073776794,275912.44,5031318.18,-73.869126808962,45.4212023228433
MTL-166,MTL-148,4710-01D,4710-01D S.P. 134e avenue (PAT),OMAEU de Montreal (Station Jean-R.-Marcotte),MONTREAL (R-D-P),305051.4,5061972.01,12.12,45.6976323164228,-73.4967718065069,305057.49,5062017.28,-73.4966935816307,45.6980396591723
MTL-167,MTL-149,4710-02D,4710-02D S.P. 134e avenue - Emissaire d'urgence,OMAEU de Montreal (Station Jean-R.-Marcotte),MONTREAL (R-D-P),305051.4,5061972.01,12.12,45.6976323164228,-73.4967718065069,305057.49,5062017.28,-73.4966935816307,45.6980396591723
MTL-170,MTL-150,4720-01D,4720-01D S.P. Delphis-Delorme (PAT),OMAEU de Montreal (Station Jean-R.-Marcotte),MONTREAL (R-D-P),305647.33,5062251.49,10.6,45.7001466385843,-73.4891190620806,305629.25,5062289.78,-73.4893511699193,45.7004911983981
MTL-146,MTL-153,4770-01D,4770-01D S.P. Avenue 35 (PAT),OMAEU de Montreal (Station Jean-R.-Marcotte),MONTREAL,305564.58,5057506.31,10.77,45.6574488836333,-73.4901891561084,305695.18,5057478.83,-73.4885133896309,45.6572014572807
MTL-57,MTL-154,4790-01D,4790-01D S.P. Cite du Havre,OMAEU de Montreal (Station Jean-R.-Marcotte),MONTREAL,301521.17,5038798.19,14.22,45.4890999687965,-73.5419473721053,301646.21,5038867.46,-73.5403481312554,45.4897238676333
MTL-39,MTL-155,4795-01D,4795-01D S.P. Moffat,OMAEU de Montreal (Station Jean-R.-Marcotte),MONTREAL,299464.12,5034439.862,15.747,45.4498689568416,-73.5682166883742,299571.03,5034413.76,-73.5668496183518,45.4496348882409
MTL-39,MTL-155,4796-01D,4795-01D S.P. Moffat,OMAEU de Montreal (Station Jean-R.-Marcotte),MONTREAL,299437.771,5034449.303,15.747,45.449953710084,-73.5685536504822,299571.03,5034413.76,-73.5668496183518,45.4496348882409
MTL-58,MTL-157,4630-01D,4630-01D TP St-Regis,OMAEU de Montreal (Station Jean-R.-Marcotte),DORVAL,283645.31,5039102.22,26.59,45.4915228327449,-73.7706519552988,283670.73,5039115.66,-73.7703273154061,45.4916445406445
MTL-135,MTL-160,4310-02D,4310-02D TP Bombardier,OMAEU de Montreal (Station Jean-R.-Marcotte),ANJOU,298049.75,5051872.58,32.4,45.6067229514286,-73.5865389276256,295351.4343,5054382.3798,-73.6211801929942,45.6292752609957
MTL-33,MTL-161,4530-03D,4530-03D S.P. Thorncrest,OMAEU de Montreal (Station Jean-R.-Marcotte),DORVAL,284489.99,5033586.18,24.1,45.4419124192972,-73.759617331488,284600.745,5033263.3936,-73.7581883469912,45.4390110549523
MTL-23,KIR-167,3580-02D,3580-02D S.P. Hymus,OMAEU de Kirkland,KIRKLAND,277966.5,5034506.68,,45.4499754460392,-73.8430542103563,,,,
MTL-10,BCF-164,4620-07D,4620-07D Woodland,OMAEU de Beaconsfield,BEACONSFIELD,274860.67,5030780.03,,45.4163156325142,-73.8825333870477,274878.4662,5030724.2929,-73.8823026266441,45.4158148508797
MTL-18,BCF-162,4610-08D,4610-08D Manresa,OMAEU de Beaconsfield,BEACONSFIELD,277116.07,5031926.92,,45.4267286650457,-73.8537812730595,,,,
MTL-14,BCF-165,4620-08D,4620-08D Kensington/Centennial,OMAEU de Beaconsfield,BEACONSFIELD,275730.94,5032759.8,,45.4341670204168,-73.8715310687105,,,,
MTL-24,BCF-163,4610-09D,4610-09D Sutton Place,OMAEU de Beaconsfield,BEACONSFIELD,277596.18,5033087.61,,45.4371918290403,-73.8477100458617,,,,
,MTL-162,4420-3D,4420-03D TP Godin,OMAEU de Montreal (Station Jean-R.-Marcotte),VERDUN,299106.2378,5034126.5574,,45.447,-73.5728,299316.46237957,5034043.37234932,-73.5701,45.4463
